,City,Cloudiness,Country,Date,Humidity,Temp,Lat,Lng,Wind Speed
0,saint-philippe,32,RE,1585199612,78,79.81,-21.36,55.77,20.45
1,sitka,90,US,1585199613,93,39.2,57.05,-135.33,8.05
2,hithadhoo,48,MV,1585199613,72,83.61,-0.6,73.08,13.47
3,carnarvon,0,AU,1585199613,32,95.0,-24.87,113.63,12.75
4,busselton,19,AU,1585199613,46,81.27,-33.65,115.33,4.14
5,adrar,0,MR,1585199614,31,59.43,20.5,-10.07,5.82
6,port alfred,57,ZA,1585199614,62,63.54,-33.59,26.89,28.19
7,longyearbyen,90,SJ,1585199614,85,12.2,78.22,15.64,24.16
8,cape town,75,ZA,1585199331,62,60.01,-33.93,18.42,16.11
9,bredasdorp,73,ZA,1585199615,67,57.2,-34.53,20.04,9.17
10,albany,28,US,1585199537,94,32.0,42.6,-73.97,2.82
11,lompoc,75,US,1585199400,87,48.2,34.64,-120.46,5.82
12,rastolita,100,RO,1585199615,58,37.92,46.97,24.99,9.98
13,weligama,78,LK,1585199615,45,88.36,5.97,80.42,8.57
14,tasiilaq,17,GL,1585199615,78,5.13,65.61,-37.64,7.78
15,pimentel,94,PE,1585199616,80,73.72,-6.84,-79.93,8.5
16,kyra,86,RU,1585199616,64,22.95,49.58,111.98,25.34
17,hilo,90,US,1585199493,73,71.6,19.73,-155.09,11.41
18,oakdale,90,US,1585199616,86,39.2,44.96,-92.96,7.2
19,bandarbeyla,100,SO,1585199616,74,79.84,9.49,50.81,12.62
20,srednekolymsk,96,RU,1585199616,91,3.43,67.45,153.68,5.55
21,souillac,75,MU,1585199617,78,80.6,-20.52,57.52,12.75
22,new norfolk,51,AU,1585199617,40,69.01,-42.78,147.06,1.01
23,faanui,36,PF,1585199617,67,83.66,-16.48,-151.75,8.05
24,vaini,20,TO,1585199618,69,82.4,-21.2,-175.2,6.93
25,powell,1,US,1585199618,75,44.6,40.16,-83.08,3.36
26,cam ranh,20,VN,1585199618,66,89.6,11.92,109.16,9.17
27,atuona,0,PF,1585199619,71,82.42,-9.8,-139.03,9.98
28,axim,100,GH,1585199619,78,79.77,4.87,-2.24,0.83
29,west point,1,US,1585199619,87,59.0,33.61,-88.65,3.6
30,qasigiannguit,100,GL,1585199619,90,0.01,68.82,-51.19,8.72
31,tonj,92,SS,1585199619,32,82.4,7.27,28.68,6.49
32,nikolskoye,88,RU,1585199620,77,37.47,59.7,30.79,11.27
33,hobart,20,AU,1585199620,44,64.0,-42.88,147.33,11.41
34,karratha,0,AU,1585199620,27,97.95,-20.74,116.85,11.36
35,khasan,84,RU,1585199620,55,54.18,42.43,130.64,4.97
36,ponta delgada,20,PT,1585199621,71,51.8,37.73,-25.67,10.29
37,portland,40,US,1585199430,81,43.0,45.52,-122.68,4.7
38,kavieng,77,PG,1585199621,77,82.85,-2.57,150.8,14.5
39,mataura,97,NZ,1585199621,89,49.62,-46.19,168.86,5.1
40,tongliao,100,CN,1585199621,46,40.6,43.61,122.27,16.04
41,ialibu,99,PG,1585199621,48,66.36,-6.28,143.99,3.15
42,butaritari,97,KI,1585199622,80,83.25,3.07,172.79,21.45
43,chokurdakh,15,RU,1585199622,84,-15.2,70.63,147.92,3.06
44,shahr-e babak,40,IR,1585199622,27,50.5,30.12,55.12,3.76
45,luganville,80,VU,1585199623,82,82.17,-15.53,167.17,5.12
46,aquiraz,99,BR,1585199623,88,75.88,-3.9,-38.39,5.66
47,radishchevo,95,RU,1585199624,78,35.83,52.85,47.88,9.8
48,ushuaia,20,AR,1585199624,66,50.0,-54.8,-68.3,8.7
49,nizwa,0,OM,1585199624,31,71.64,22.93,57.53,3.98
50,kodiak,90,US,1585199624,65,46.4,57.79,-152.41,10.29
51,valdez,72,EC,1585199625,86,76.06,1.25,-78.98,3.44
52,ambilobe,56,MG,1585199625,72,84.06,-13.2,49.05,1.14
53,dunedin,14,NZ,1585199601,75,59.0,-45.87,170.5,8.01
54,koumac,37,NC,1585199625,68,79.43,-20.57,164.28,6.58
55,narsaq,20,GL,1585199625,81,11.71,60.92,-46.05,7.27
56,port macquarie,90,AU,1585199626,94,68.0,-31.43,152.92,6.93
57,cabo san lucas,0,MX,1585199558,69,68.86,22.89,-109.91,10.4
58,taltal,17,CL,1585199626,77,60.67,-25.4,-70.48,0.85
59,provideniya,90,RU,1585199627,79,26.6,64.38,-173.3,8.95
60,mar del plata,75,AR,1585199443,88,66.0,-38.0,-57.56,11.41
61,hermanus,37,ZA,1585199627,58,58.57,-34.42,19.23,9.31
62,kulhudhuffushi,15,MV,1585199627,69,83.64,6.62,73.07,9.8
63,sisimiut,100,GL,1585199346,87,3.78,66.94,-53.67,15.21
64,cidreira,57,BR,1585199628,82,70.23,-30.18,-50.21,14.97
65,hambantota,75,LK,1585199628,70,86.0,6.12,81.12,12.75
66,puerto ayora,86,EC,1585199628,82,75.99,-0.74,-90.35,1.01
67,tvoroyri,56,FO,1585199629,69,43.02,61.56,-6.81,23.13
68,umm lajj,11,SA,1585199629,49,74.89,25.02,37.27,4.07
69,punta arenas,40,CL,1585199629,62,55.4,-53.15,-70.92,23.04
70,sistranda,55,NO,1585199629,81,39.06,63.73,8.83,13.0
71,mackay,10,AU,1585199630,65,82.4,-21.15,149.2,17.22
72,east london,40,ZA,1585199630,59,62.6,-33.02,27.91,18.34
73,ribeira grande,81,PT,1585199630,62,53.89,38.52,-28.7,12.21
74,port lincoln,29,AU,1585199630,54,65.86,-34.73,135.87,9.44
75,port hardy,40,CA,1585199631,80,41.0,50.7,-127.42,3.36
76,rusape,13,ZW,1585199631,41,70.05,-18.53,32.13,3.47
77,bengkulu,48,ID,1585199631,67,87.42,-3.8,102.27,6.62
78,leh,77,IN,1585199631,20,27.88,34.17,77.58,2.93
79,chuy,83,UY,1585199632,93,68.72,-33.7,-53.46,3.87
80,airai,69,TL,1585199632,71,67.48,-8.93,125.41,1.28
81,hualmay,87,PE,1585199632,83,71.55,-11.1,-77.61,6.49
82,pachino,88,IT,1585199632,81,53.82,36.72,15.09,26.91
83,vestmannaeyjar,98,IS,1585199633,70,40.05,63.44,-20.27,30.11
84,usvyaty,4,RU,1585199633,72,36.21,55.75,30.75,5.66
85,pangai,20,TO,1585199633,69,82.4,-19.8,-174.35,11.41
86,lasa,45,IT,1585199634,64,26.55,46.62,10.7,2.26
87,barrow,1,US,1585199634,83,-7.6,71.29,-156.79,13.87
88,talnakh,100,RU,1585199634,93,18.81,69.49,88.4,17.43
89,avarua,40,CK,1585199635,78,82.4,-21.21,-159.78,11.41
90,nouadhibou,2,MR,1585199589,77,62.6,20.93,-17.03,12.75
91,chardara,61,KZ,1585199635,39,52.9,41.25,67.97,4.54
92,tungor,32,RU,1585199635,96,28.24,53.38,142.96,6.98
93,vung tau,62,VN,1585199385,61,86.56,10.35,107.08,16.49
94,kaitangata,44,NZ,1585199635,80,57.99,-46.28,169.85,11.99
95,pangnirtung,74,CA,1585199477,78,-15.88,66.15,-65.71,5.23
96,bluff,88,NZ,1585199520,79,52.14,-46.6,168.33,12.93
97,lichinga,80,MZ,1585199636,68,67.55,-13.31,35.24,1.63
98,oktyabrskiy,99,RU,1585199636,93,30.6,54.48,53.47,14.27
99,iquitos,67,PE,1585199637,94,75.2,-3.75,-73.25,0.11
100,leningradskiy,99,RU,1585199637,91,-1.03,69.38,178.42,5.7
101,tolmezzo,98,IT,1585199637,73,30.58,46.41,13.02,9.4
102,nantucket,90,US,1585199637,93,37.99,41.28,-70.1,17.22
103,dahuk,43,IQ,1585199638,49,60.8,36.87,42.99,8.12
104,payo,72,ID,1585199638,60,89.55,-3.75,103.64,3.24
105,faya,58,SA,1585199638,17,62.76,18.39,42.45,2.48
106,miyako,31,JP,1585199638,52,56.21,39.64,141.95,5.82
107,impfondo,100,CG,1585199638,87,72.99,1.64,18.07,3.09
108,okha,21,RU,1585199639,95,28.36,53.57,142.95,6.76
109,coos bay,1,US,1585199639,87,42.8,43.37,-124.22,3.36
110,college,75,US,1585199640,69,33.8,64.86,-147.8,8.05
111,latur,1,IN,1585199640,23,91.45,18.4,76.58,8.55
112,los llanos de aridane,90,ES,1585199640,77,60.8,28.66,-17.92,6.93
113,barra,87,BR,1585199641,74,74.05,-11.09,-43.14,8.23
114,petropavlovsk-kamchatskiy,75,RU,1585199641,100,35.6,53.05,158.65,8.95
115,baruun-urt,0,MN,1585199352,51,24.49,46.68,113.28,23.29
116,ancud,0,CL,1585199641,82,55.9,-41.87,-73.82,4.18
117,leo,76,BF,1585199642,19,78.73,11.1,-2.1,4.36
118,ponta do sol,100,PT,1585199642,66,57.0,32.67,-17.1,1.01
119,sale,0,MA,1585199642,93,46.4,34.04,-6.82,4.07
120,yellowknife,20,CA,1585199425,72,12.2,62.46,-114.35,6.93
121,torbay,20,CA,1585199642,92,28.0,47.67,-52.73,14.99
122,arraial do cabo,45,BR,1585199643,82,72.0,-22.97,-42.03,6.71
123,rikitea,100,PF,1585199643,76,78.1,-23.12,-134.97,2.21
124,ugoofaaru,8,MV,1585199643,70,83.8,5.67,73.0,12.64
125,kandrian,100,PG,1585199643,77,83.59,-6.22,149.55,3.02
126,saskylakh,41,RU,1585199644,89,1.08,71.92,114.08,10.13
127,visby,9,SE,1585199644,74,35.6,57.64,18.3,10.29
128,along,2,IN,1585199645,30,85.08,28.17,94.77,3.49
129,havre-saint-pierre,90,CA,1585199645,85,24.8,50.23,-63.6,4.7
130,point pedro,100,LK,1585199645,67,83.46,9.82,80.23,13.65
131,miandrivazo,5,MG,1585199645,59,85.01,-19.52,45.47,3.58
132,muzhi,100,RU,1585199646,94,32.05,65.37,64.67,16.06
133,bethel,28,US,1585199646,91,34.0,41.37,-73.41,6.73
134,terra santa,61,BR,1585199471,91,74.82,-2.1,-56.49,1.52
135,verkhnevilyuysk,100,RU,1585199646,91,6.91,63.45,120.32,6.17
136,jamestown,1,US,1585199646,86,39.99,42.1,-79.24,9.17
137,lebu,0,CL,1585199646,86,56.64,-37.62,-73.65,5.12
138,severo-kurilsk,100,RU,1585199647,95,32.79,50.68,156.12,17.22
139,castro,74,BR,1585199555,70,56.97,-24.79,-50.01,5.01
140,puerto escondido,0,MX,1585199647,74,77.86,15.85,-97.07,5.84
141,plettenberg bay,95,ZA,1585199647,70,58.35,-34.05,23.37,17.0
142,leshukonskoye,95,RU,1585199648,88,35.02,64.9,45.76,9.86
143,fuyu,92,CN,1585199648,53,38.68,45.18,124.82,18.75
144,trairi,99,BR,1585199638,84,76.91,-3.28,-39.27,4.23
145,magistralnyy,100,RU,1585199648,85,22.86,56.17,107.45,5.7
146,ahipara,27,NZ,1585199649,67,64.47,-35.17,173.17,6.58
147,khuldabad,91,IN,1585199649,38,79.18,20.05,75.18,3.74
148,mahebourg,40,MU,1585199649,74,82.4,-20.41,57.7,13.87
149,biloela,1,AU,1585199649,34,85.93,-24.42,150.5,9.93
150,ourossogui,40,SN,1585199650,20,71.55,15.61,-13.32,8.48
151,geraldton,2,AU,1585199650,23,98.6,-28.77,114.6,14.99
152,tres arroyos,31,AR,1585199650,93,52.54,-38.37,-60.28,4.63
153,pakaur,0,IN,1585199650,16,96.12,24.63,87.85,6.42
154,olavarria,87,AR,1585199650,89,57.0,-36.89,-60.32,8.14
155,bardiyah,97,LY,1585199651,69,62.4,31.76,25.09,30.0
156,ambon,32,ID,1585199651,68,84.4,-3.7,128.18,6.26
157,ratchaburi,50,TH,1585199652,21,99.61,13.58,99.53,5.59
158,gorontalo,24,ID,1585199652,74,85.39,0.54,123.06,1.25
159,jieshi,29,CN,1585199652,66,80.2,22.81,115.83,9.01
160,tiksi,0,RU,1585199652,85,-6.92,71.69,128.87,4.38
161,arlit,13,NE,1585199653,19,68.52,18.74,7.39,7.2
162,brae,24,GB,1585199653,93,39.2,60.4,-1.35,9.17
163,upernavik,100,GL,1585199653,92,2.73,72.79,-56.15,19.84
164,coihaique,98,CL,1585199653,87,50.0,-45.58,-72.07,2.24
165,tucuma,93,BR,1585199653,95,74.79,-0.18,-50.05,3.51
166,zvishavane,12,ZW,1585199654,34,76.23,-20.33,30.07,4.81
167,guarapari,5,BR,1585199654,85,69.06,-20.67,-40.5,7.4
168,hasaki,5,JP,1585199654,47,61.09,35.73,140.83,9.15
169,charters towers,56,AU,1585199654,31,87.64,-20.1,146.27,10.98
170,semaria,58,IN,1585199655,21,93.06,24.31,79.97,4.07
171,north bend,1,US,1585199655,87,42.8,43.41,-124.22,3.36
172,te anau,100,NZ,1585199655,77,47.19,-45.42,167.72,5.37
173,panama city,49,PA,1585199425,78,75.2,8.99,-79.52,5.68
174,kapaa,75,US,1585199655,73,73.4,22.08,-159.32,24.16
175,emerald,75,AU,1585199656,40,88.0,-23.53,148.17,11.41
176,roma,1,US,1585199554,80,35.6,43.21,-75.46,5.82
177,fukue,75,JP,1585199656,93,60.8,32.69,128.84,12.75
178,rayong,88,TH,1585199656,58,87.91,12.83,101.43,8.21
179,port elizabeth,76,ZA,1585199656,76,57.2,-33.92,25.57,18.34
180,kieta,100,PG,1585199657,83,78.64,-6.22,155.63,5.57
181,meulaboh,100,ID,1585199657,72,84.61,4.14,96.13,4.5
182,dikson,100,RU,1585199636,98,28.89,73.51,80.55,19.3
183,esperance,13,AU,1585199657,48,76.89,-33.87,121.9,11.21
184,keskin,0,TR,1585199658,55,42.08,39.67,33.61,7.34
185,saldanha,10,ZA,1585199658,61,59.04,-33.01,17.94,22.95
186,sao filipe,58,CV,1585199658,76,68.2,14.9,-24.5,14.23
187,puerto baquerizo moreno,68,EC,1585199658,79,77.09,-0.9,-89.6,6.29
188,lanzhou,100,CN,1585199658,75,43.0,36.06,103.79,5.59
189,qaqortoq,26,GL,1585199659,84,17.37,60.72,-46.03,13.38
190,san quintin,100,MX,1585199659,73,58.24,30.48,-115.95,19.86
191,bilma,1,NE,1585199659,15,75.67,18.69,12.92,11.16
192,dingle,30,PH,1585199659,56,86.5,11.0,122.67,15.21
193,pevek,100,RU,1585199659,92,-1.46,69.7,170.31,10.78
194,sungaipenuh,100,ID,1585199660,58,79.84,-2.08,101.38,0.69
195,port pirie,54,AU,1585199660,34,73.31,-33.18,138.02,9.62
196,celestun,0,MX,1585199660,71,77.77,20.87,-90.4,15.97
197,cherskiy,73,RU,1585199660,91,-2.31,68.75,161.3,8.81
198,whitehorse,90,CA,1585199639,59,35.6,60.72,-135.05,6.93
199,honningsvag,40,NO,1585199661,64,33.8,70.98,25.97,28.86
200,quelimane,20,MZ,1585199661,88,75.2,-17.88,36.89,4.52
201,luang prabang,20,LA,1585199661,51,86.0,19.89,102.13,2.24
202,sao joao da barra,4,BR,1585199654,86,69.31,-21.64,-41.05,7.07
203,nyurba,100,RU,1585199661,91,9.21,63.28,118.33,5.64
204,besikduzu,100,TR,1585199662,80,48.33,41.05,39.23,1.86
205,kahului,40,US,1585199647,77,69.8,20.89,-156.47,14.99
206,wewak,80,PG,1585199662,75,82.36,-3.55,143.63,5.3
207,aswan,0,EG,1585199662,25,66.2,24.09,32.91,5.82
208,cockburn town,0,TC,1585199655,77,75.74,21.46,-71.14,11.52
209,kidal,0,ML,1585199662,26,60.3,18.44,1.41,7.07
210,tessalit,4,ML,1585199661,29,54.75,20.2,1.01,4.34
211,bontang,42,ID,1585199663,62,86.68,0.13,117.5,8.43
212,kyshtovka,100,RU,1585199663,92,24.04,56.55,76.63,17.31
213,neuquen,0,AR,1585199663,59,64.4,-38.95,-68.06,3.36
214,chapais,100,CA,1585199664,85,32.31,49.78,-74.85,11.16
215,camana,54,PE,1585199664,75,72.61,-16.62,-72.71,5.75
216,nanakuli,90,US,1585199664,83,69.8,21.39,-158.15,4.7
217,vao,77,NC,1585199664,78,75.88,-22.67,167.48,23.76
218,codrington,40,AU,1585199631,60,62.11,-38.27,141.97,12.37
219,sunland park,1,US,1585199665,27,80.6,31.8,-106.58,6.93
220,tabou,69,CI,1585199665,85,78.28,4.42,-7.35,1.92
221,klaksvik,53,FO,1585199665,69,43.75,62.23,-6.59,24.92
222,saint-georges,37,GD,1585199471,76,77.9,12.06,-61.75,16.33
223,tomigusuku,40,JP,1585199665,65,78.8,26.18,127.67,21.92
224,oranjemund,60,NA,1585199666,82,62.42,-28.55,16.43,21.16
225,broome,90,US,1585199494,80,35.6,42.25,-75.83,3.36
226,borzoy,61,RU,1585199666,44,46.96,42.84,45.63,1.25
227,yelizovo,75,RU,1585199666,100,35.6,53.19,158.38,8.95
228,marzuq,35,YE,1585199666,36,74.1,14.4,46.47,2.15
229,rio gallegos,20,AR,1585199542,81,50.0,-51.62,-69.22,6.93
230,christchurch,4,NZ,1585199536,42,68.0,-43.53,172.63,16.11
231,lagoa,99,PT,1585199667,67,53.85,39.05,-27.98,15.66
232,juruti,77,BR,1585199668,86,75.43,-2.15,-56.09,3.24
233,opuwo,32,NA,1585199668,49,71.56,-18.06,13.84,3.49
234,egvekinot,100,RU,1585199668,94,18.55,66.32,-179.17,4.36
235,coloso,4,CO,1585199668,76,75.61,9.49,-75.36,3.38
236,half moon bay,20,US,1585199668,66,50.0,37.46,-122.43,16.11
237,port moresby,40,PG,1585199668,66,89.6,-9.44,147.18,11.41
238,vanimo,73,PG,1585199669,74,84.31,-2.67,141.3,8.08
239,takoradi,100,GH,1585199669,80,79.36,4.88,-1.76,2.37
240,seoul,90,KR,1585199595,32,69.8,37.57,126.98,3.47
241,kysyl-syr,100,RU,1585199669,90,3.34,63.9,122.76,9.44
242,prince rupert,90,CA,1585199669,93,39.2,54.32,-130.32,4.7
243,kamina,100,CD,1585199382,67,68.52,-8.74,24.99,0.65
244,santa clara,2,CU,1585199669,88,75.2,22.4,-79.97,2.24
245,tuktoyaktuk,75,CA,1585199670,84,-0.4,69.45,-133.04,18.34
246,berlevag,99,NO,1585199670,84,34.57,70.86,29.09,28.43
247,san patricio,2,MX,1585199670,80,73.67,19.22,-104.7,3.56
248,pacific grove,40,US,1585199440,57,51.8,36.62,-121.92,10.29
249,kichera,100,RU,1585199670,83,11.28,55.94,110.1,7.27
250,minusio,75,CH,1585199671,100,30.2,46.18,8.81,3.02
251,marawi,67,PH,1585199671,66,77.23,8.0,124.29,4.94
252,pisco,100,PE,1585199671,83,72.0,-13.7,-76.22,3.36
253,cermik,5,TR,1585199672,51,53.76,38.14,39.45,5.23
254,tabora,40,TZ,1585199672,100,64.4,-5.02,32.8,2.98
255,changping,100,CN,1585199672,37,50.92,40.22,116.22,10.47
256,baoro,87,CF,1585199673,65,71.47,5.67,15.97,6.69
257,murdochville,100,CA,1585199673,91,22.21,48.96,-65.5,7.9
258,auki,91,SB,1585199673,64,86.0,-8.77,160.7,3.87
259,maun,13,BW,1585199673,100,66.2,-19.98,23.42,3.36
260,lavrentiya,99,RU,1585199674,96,15.94,65.58,-171.0,4.36
261,marabba,62,SD,1585199674,10,88.5,12.35,32.18,8.41
262,luba,98,GQ,1585199674,71,79.92,3.46,8.55,2.51
263,qaanaaq,100,GL,1585199674,85,0.61,77.48,-69.36,9.31
264,port-cartier,100,CA,1585199675,97,26.33,50.03,-66.87,4.23
265,elk city,1,US,1585199675,51,62.6,35.41,-99.4,4.7
266,sicuani,96,PE,1585199675,25,45.93,-14.27,-71.23,2.3
267,moranbah,0,AU,1585199463,32,86.85,-22.0,148.05,13.67
268,bathurst,86,AU,1585199675,54,61.7,-33.42,149.58,11.27
269,mathathane,0,BW,1585199676,28,80.92,-22.27,28.75,6.6
270,lukulu,78,ZM,1585199676,64,68.83,-14.37,23.24,5.37
271,monywa,0,MM,1585199676,18,96.89,22.12,95.13,0.98
272,khani,93,GE,1585199676,52,51.58,41.96,42.96,4.5
273,luanda,40,AO,1585199572,78,80.6,-8.84,13.23,6.93
274,saint-pierre,36,RE,1585199676,65,82.4,-21.34,55.48,6.93
275,guerrero negro,61,MX,1585199677,73,60.04,27.98,-114.06,17.76
276,khandyga,93,RU,1585199677,92,21.2,62.67,135.6,11.95
277,naryan-mar,98,RU,1585199677,92,33.39,67.67,53.09,19.62
278,lengshuijiang,76,CN,1585199677,62,78.91,27.69,111.43,6.26
279,maceio,20,BR,1585199677,94,77.0,-9.67,-35.74,4.7
280,poum,11,NC,1585199677,71,79.7,-20.23,164.02,13.29
281,flinders,32,AU,1585199678,66,67.82,-34.58,150.86,14.07
282,uige,100,AO,1585199444,76,68.61,-7.61,15.06,2.46
283,wuda,99,CN,1585199678,29,44.04,39.5,106.71,9.1
284,ilek,47,RU,1585199678,70,39.47,51.53,53.38,5.28
285,suwannaphum,7,TH,1585199679,35,95.86,15.6,103.8,7.43
286,thompson,75,CA,1585199661,65,3.2,55.74,-97.86,4.41
287,vila velha,40,BR,1585199679,94,71.6,-20.33,-40.29,4.7
288,raudeberg,91,NO,1585199680,91,41.0,61.99,5.14,15.9
289,atar,0,MR,1585199680,28,61.54,20.52,-13.05,4.97
290,port-gentil,98,GA,1585199680,80,80.17,-0.72,8.78,7.49
291,mocuba,0,MZ,1585199681,76,77.68,-16.84,36.99,4.5
292,dongkan,100,CN,1585199681,85,64.6,34.0,119.83,9.82
293,staryy nadym,100,RU,1585199681,98,26.74,65.61,72.68,20.33
294,vytegra,93,RU,1585199682,78,37.38,61.01,36.45,14.29
295,xining,94,CN,1585199682,22,45.09,36.62,101.77,9.53
296,kununurra,41,AU,1585199682,41,95.0,-15.77,128.73,9.17
297,fortuna,20,US,1585199682,86,43.0,40.6,-124.16,6.89
298,takanosu,75,JP,1585199683,66,51.8,40.22,140.37,12.75
299,baillif,5,GP,1585199683,77,76.68,16.02,-61.75,11.56
300,brazzaville,20,CG,1585199683,94,75.2,-4.27,15.28,2.3
301,kalmunai,100,LK,1585199683,56,85.37,7.42,81.82,10.45
302,alice springs,0,AU,1585199684,28,86.0,-23.7,133.88,11.41
303,genhe,100,CN,1585199684,78,17.82,50.78,121.52,15.97
304,zhangye,22,CN,1585199684,23,44.26,38.93,100.45,2.82
305,griffith,75,US,1585199685,76,51.01,41.53,-87.42,13.87
306,georgetown,20,MY,1585199685,66,89.6,5.41,100.34,6.93
307,aklavik,100,CA,1585199685,89,5.92,68.22,-135.01,11.41
308,tayu,16,ID,1585199685,60,87.87,-6.54,111.05,7.87
309,walvis bay,0,NA,1585199685,80,62.83,-22.96,14.51,4.52
310,collecchio,87,IT,1585199686,87,32.56,44.75,10.22,5.08
311,tooele,90,US,1585199686,54,32.0,40.53,-112.3,4.7
312,khatanga,0,RU,1585199652,92,8.91,71.97,102.5,10.6
313,toora-khem,100,RU,1585199686,66,26.62,52.47,96.11,3.36
314,mezen,35,RU,1585199687,93,32.77,65.85,44.24,11.97
315,mareeba,96,AU,1585199687,76,80.01,-17.0,145.43,4.0
316,laredo,1,US,1585199687,69,78.8,27.51,-99.51,13.87
317,pa sang,10,TH,1585199687,26,99.0,18.53,98.94,5.73
318,yeppoon,10,AU,1585199687,66,79.32,-23.13,150.73,12.01
319,naze,80,JP,1585199688,72,66.83,28.37,129.48,15.9
320,maceo,68,CO,1585199688,74,65.95,6.55,-74.79,3.44
321,mayumba,100,GA,1585199688,84,78.66,-3.43,10.66,7.54
322,bermejo,40,AR,1585199688,82,60.8,-32.88,-68.8,1.7
323,mana,94,GF,1585199689,86,75.13,5.66,-53.78,7.25
324,kloulklubed,16,PW,1585199689,78,82.62,7.04,134.26,19.17
325,keti bandar,100,PK,1585199689,37,81.46,24.14,67.45,13.69
326,sivaki,71,RU,1585199689,86,28.31,52.63,126.75,10.67
327,sakassou,99,CI,1585199689,81,72.23,7.45,-5.29,5.08
328,haysville,20,US,1585199689,59,64.99,37.56,-97.35,10.29
329,bam,24,IR,1585199690,27,61.29,29.11,58.36,9.69
330,maiduguri,58,NG,1585199690,36,86.38,11.85,13.16,10.33
331,baniachang,1,BD,1585199690,24,95.86,24.52,91.37,3.31
332,dolores,100,AR,1585199690,94,63.5,-36.31,-57.68,6.98
333,siocon,43,PH,1585199690,72,83.01,7.71,122.14,7.07
334,yei,61,SS,1585199691,49,78.6,4.09,30.68,4.43
335,vangaindrano,49,MG,1585199691,84,78.78,-23.35,47.6,4.88
336,biggar,53,GB,1585199691,85,41.18,55.62,-3.52,1.57
337,tilichiki,100,RU,1585199691,95,30.92,60.47,166.1,1.36
338,port augusta,53,AU,1585199691,17,79.12,-32.5,137.77,6.89
339,oron,100,NG,1585199691,87,76.15,4.83,8.23,1.48
340,alenquer,88,BR,1585199692,92,74.86,-1.94,-54.74,3.98
341,tuatapere,98,NZ,1585199692,86,50.05,-46.13,167.68,7.38
342,aden,57,YE,1585199692,66,83.05,12.78,45.04,10.8
343,cabinda,100,AO,1585199693,80,80.47,-5.55,12.2,6.93
344,dagda,0,LV,1585199693,72,35.6,56.1,27.54,5.86
345,usinsk,99,RU,1585199693,93,32.76,65.99,57.53,25.3
346,lufilufi,27,WS,1585199694,69,85.01,-13.87,-171.6,7.96
347,saint-joseph,34,RE,1585199694,76,79.45,-21.37,55.62,21.88
348,abbeville,79,FR,1585199694,88,33.08,50.1,1.83,8.1
349,bulgan,0,MN,1585199694,48,23.79,48.81,103.53,18.3
350,nayoro,1,JP,1585199694,60,42.1,44.35,142.46,7.58
351,quesnel,20,CA,1585199462,58,30.2,53.0,-122.5,2.24
352,labuhan,73,ID,1585199695,68,87.57,-6.88,112.21,8.9
353,fairbanks,90,US,1585199695,95,33.8,64.84,-147.72,8.05
354,henties bay,0,NA,1585199695,84,62.82,-22.12,14.28,5.97
355,fort nelson,90,CA,1585199671,59,33.8,58.81,-122.7,4.52
356,seeboden,94,AT,1585199696,82,25.21,46.82,13.49,4.52
357,westport,1,US,1585199525,69,39.2,41.14,-73.36,8.05
358,la sarre,100,CA,1585199696,90,31.12,48.8,-79.2,4.7
359,boundiali,98,CI,1585199696,66,75.47,9.52,-6.49,2.82
360,yamada,39,JP,1585199696,49,56.8,39.47,141.95,4.97
361,hofn,4,IS,1585199697,84,34.12,64.25,-15.21,19.46
362,tual,78,ID,1585199697,69,83.8,-5.67,132.75,5.23
363,pangody,100,RU,1585199697,97,26.42,65.85,74.49,18.19
364,primorsk,0,UA,1585199697,70,42.35,46.73,36.34,23.31
365,gashua,38,NG,1585199698,22,79.25,12.87,11.05,6.69
366,garissa,85,KE,1585199698,56,86.5,-0.45,39.64,12.91
367,pacifica,20,US,1585199698,66,50.0,37.61,-122.49,16.11
368,grand gaube,9,MU,1585199698,74,82.99,-20.01,57.66,10.0
369,ilulissat,100,GL,1585199698,71,6.8,69.22,-51.1,20.8
370,hamilton,20,US,1585199452,71,53.01,39.18,-84.53,6.93
371,bud,64,US,1585199699,91,51.01,39.45,-86.18,8.59
372,pierre,90,US,1585199699,75,34.0,44.37,-100.35,6.04
373,edendale,51,ZA,1585199699,55,67.15,-29.65,30.31,5.82
374,nome,90,US,1585199699,92,30.2,64.5,-165.41,4.7
375,lagos,98,NG,1585199655,86,77.92,6.58,3.75,7.18
376,angoche,39,MZ,1585199466,82,81.0,-16.23,39.91,3.33
377,lac du bonnet,61,CA,1585199700,93,21.58,50.25,-96.06,0.81
378,manado,40,ID,1585199647,62,89.6,1.49,124.85,12.75
379,koslan,100,RU,1585199700,92,34.81,63.46,48.9,10.78
380,iqaluit,5,CA,1585199700,76,-7.6,63.75,-68.51,3.36
381,yaring,87,TH,1585199700,67,85.8,6.87,101.37,13.04
382,novyy urengoy,100,RU,1585199462,96,28.69,66.08,76.63,16.91
383,yagodnoye,66,RU,1585199701,88,16.05,62.55,149.67,1.83
384,barpeta,27,IN,1585199701,24,92.32,26.32,91.0,5.57
385,bilibino,100,RU,1585199701,92,15.49,68.05,166.44,1.45
386,cherdyn,100,RU,1585199701,93,31.5,60.4,56.48,12.93
387,san luis,54,AR,1585199701,66,60.03,-33.3,-66.34,5.46
388,changli,100,CN,1585199702,54,46.27,39.7,119.15,16.75
389,meaford,60,CA,1585199702,92,32.0,44.6,-80.58,11.34
390,isangel,42,VU,1585199702,82,79.5,-19.55,169.27,20.85
391,luderitz,7,NA,1585199702,72,64.4,-26.65,15.16,18.34
392,bereda,2,ES,1585199702,100,33.01,43.27,-7.54,1.01
393,nenjiang,6,CN,1585199703,76,29.64,49.18,125.22,19.04
394,saint george,1,US,1585199586,40,53.6,37.1,-113.58,6.93
395,cacapava do sul,76,BR,1585199703,74,61.7,-30.51,-53.49,1.7
396,atasu,0,KZ,1585199703,85,22.48,48.68,71.64,7.05
397,kamenka,27,RU,1585199703,69,36.88,51.32,42.77,4.09
398,beipiao,100,CN,1585199704,47,42.28,41.79,120.78,14.83
399,otane,77,NZ,1585199704,56,62.67,-39.88,176.63,0.69
400,oktyabrskoye,90,RU,1585199704,100,42.8,43.06,44.74,4.47
401,paamiut,100,GL,1585199705,92,16.05,61.99,-49.67,5.1
402,penarth,0,GB,1585199705,64,37.4,51.44,-3.18,6.93
403,pudozh,78,RU,1585199681,81,36.84,61.81,36.53,9.8
404,ramygala,0,LT,1585199705,76,35.46,55.52,24.3,4.12
405,hervey bay,10,AU,1585199706,67,80.01,-25.3,152.85,12.41
406,wufeng,74,CN,1585199706,37,64.4,27.45,104.83,3.89
407,houma,1,US,1585199489,94,72.0,29.6,-90.72,2.98
408,taguatinga,99,BR,1585199706,81,71.76,-12.39,-46.57,1.88
409,norwich,47,GB,1585199545,86,37.4,52.63,1.3,2.24
410,sobolevo,0,RU,1585199707,70,36.28,54.43,31.9,5.44
411,hammerfest,75,NO,1585199707,92,30.2,70.66,23.68,50.55
412,mantua,92,IT,1585199707,63,37.99,45.17,10.78,5.01
413,nara,79,JP,1585199707,14,73.0,34.69,135.8,1.99
414,zaysan,0,KZ,1585199708,85,20.62,47.47,84.87,4.74
415,kuzino,98,RU,1585199708,82,30.76,57.02,59.44,16.96
416,ust-nera,74,RU,1585199708,84,16.07,64.57,143.2,4.38
417,beian,75,NO,1585199708,86,37.4,63.66,9.57,9.17
418,clyde river,90,CA,1585199708,57,-7.6,70.47,-68.59,17.22
419,homer,40,US,1585199708,80,39.2,59.64,-151.55,10.29
420,yar-sale,100,RU,1585199709,98,25.32,66.83,70.83,15.55
421,waspan,5,NI,1585199709,94,72.1,14.74,-83.97,1.05
422,makakilo city,90,US,1585199709,83,75.2,21.35,-158.09,4.7
423,philippeville,8,BE,1585199709,54,30.2,50.2,4.54,4.7
424,oriximina,70,BR,1585199710,91,75.67,-1.77,-55.87,3.8
425,erzin,3,TR,1585199710,63,59.67,36.96,36.2,3.29
426,inhambane,0,MZ,1585199710,88,77.0,-23.86,35.38,4.7
427,namibe,94,AO,1585199710,83,74.59,-15.2,12.15,4.85
428,opatija,100,HR,1585199710,67,35.01,45.34,14.31,13.0
429,alofi,28,NU,1585199711,65,82.4,-19.06,-169.92,9.17
430,norman wells,90,CA,1585199662,79,23.0,65.28,-126.83,12.75
431,constitucion,0,CL,1585199711,74,58.73,-35.33,-72.42,5.64
432,scarborough,0,GB,1585199711,95,28.99,54.28,-0.4,2.51
433,udachnyy,67,RU,1585199712,55,10.4,66.42,112.4,5.17
434,skibbereen,100,IE,1585199712,83,45.1,51.55,-9.27,9.28
435,zerbst,0,DE,1585199712,57,30.0,51.97,12.08,3.0
436,mersing,40,MY,1585199712,70,89.6,2.43,103.84,6.93
437,makkaveyevo,100,RU,1585199713,75,22.19,51.75,113.95,20.62
438,yatou,100,CN,1585199713,95,49.08,37.15,122.38,6.64
439,nanortalik,29,GL,1585199713,88,23.27,60.14,-45.24,19.19
440,rawson,0,AR,1585199714,62,64.04,-43.3,-65.1,27.29
441,sulangan,26,PH,1585199714,67,83.71,11.14,123.72,9.48
442,bac lieu,24,VN,1585199605,50,90.52,9.29,105.72,15.21
443,victoria,60,HK,1585199677,92,75.0,22.29,114.16,1.01
444,avera,8,US,1585199714,79,60.85,33.19,-82.53,5.08
445,midland,1,US,1585199461,17,71.6,32.0,-102.08,4.7
446,robore,12,BO,1585199715,85,73.4,-18.33,-59.75,1.95
447,nishihara,40,JP,1585199715,65,78.8,26.18,127.76,21.92
448,zhumadian,100,CN,1585199715,77,66.25,32.98,114.03,16.51
449,iralaya,1,HN,1585199715,87,77.02,15.0,-83.23,8.66
450,nioro,45,GM,1585199715,42,66.06,13.35,-15.75,5.03
451,gat,88,IL,1585199716,78,51.01,31.61,34.76,5.73
452,maragogi,100,BR,1585199716,78,79.86,-9.01,-35.22,4.52
453,isiolo,46,KE,1585199716,44,76.8,0.35,37.58,0.51
454,novita,77,CO,1585199716,88,73.74,4.96,-76.61,0.51
455,washougal,8,US,1585199716,56,42.01,45.58,-122.35,0.11
456,bagotville,90,AU,1585199717,88,73.0,-28.98,153.42,8.52
457,khandbari,6,NP,1585199717,27,80.11,27.37,87.2,5.61
458,cozumel,5,MX,1585199717,88,75.99,20.51,-86.95,3.36
459,bayan,100,CN,1585199717,71,38.21,46.08,127.4,12.08
460,glendive,75,US,1585199717,64,37.4,47.11,-104.71,4.7
461,portobelo,90,PA,1585199718,82,76.42,9.55,-79.65,10.33
462,dhar,85,IN,1585199718,28,88.61,22.6,75.3,7.11
463,raga,100,SS,1585199718,18,78.13,8.46,25.68,5.59
464,qandala,75,SO,1585199718,61,84.97,11.47,49.87,16.78
465,kalianget,94,ID,1585199718,72,85.71,-7.05,113.93,9.62
466,tautira,88,PF,1585199718,66,82.87,-17.73,-149.15,3.69
467,rio rancho,100,US,1585199706,28,62.01,35.23,-106.66,1.99
468,moerai,100,PF,1585199699,80,75.15,-22.43,-151.33,20.18
469,taft,20,IR,1585199710,57,48.2,31.75,54.21,4.7
470,khoy,99,IR,1585199719,43,48.87,38.55,44.95,3.91
471,baykit,92,RU,1585199719,91,25.54,61.67,96.37,6.78
472,guiyang,90,CN,1585199451,56,73.4,26.58,106.72,15.66
473,erenhot,0,CN,1585199720,42,30.63,43.65,111.98,21.34
474,cap malheureux,7,MU,1585199720,74,82.99,-19.98,57.61,10.0
475,palmer,1,US,1585199720,74,34.0,42.16,-72.33,6.93
476,bairiki,75,KI,1585199720,79,86.0,1.33,172.98,5.82
477,smithers,90,CA,1585199721,59,35.6,54.78,-127.17,5.32
478,araguaina,88,BR,1585199721,89,73.04,-7.19,-48.21,1.95
479,luau,100,AO,1585199721,70,66.34,-10.71,22.22,1.25
480,katima mulilo,75,NA,1585199721,94,69.8,-17.5,24.27,0.31
481,tura,21,IN,1585199721,21,90.39,25.52,90.22,4.52
482,zhigansk,39,RU,1585199721,88,-3.24,66.77,123.37,10.71
483,vila,0,PT,1585199687,91,39.99,42.03,-8.16,1.01
484,hyeres,12,FR,1585199520,74,35.6,43.12,6.12,6.93
485,saurimo,100,AO,1585199722,69,67.64,-9.66,20.39,0.94
486,bar harbor,1,US,1585199722,92,36.0,44.39,-68.2,5.82
487,lata,67,PT,1585199722,87,49.57,40.16,-8.33,3.36
488,yerbogachen,93,RU,1585199723,91,18.81,61.28,108.01,7.31
489,skelleftea,44,SE,1585199723,90,32.0,64.75,20.95,6.93
490,coleraine,100,GB,1585199723,87,42.6,55.13,-6.67,6.82
491,ishigaki,20,JP,1585199723,83,80.6,24.34,124.16,12.75
492,whittlesea,83,ZA,1585199723,49,51.51,-32.18,26.82,14.07
493,chicama,57,PE,1585199723,74,74.5,-7.84,-79.15,4.88
494,aska,0,IN,1585199724,18,99.12,19.61,84.67,8.1
495,manokwari,97,ID,1585199724,78,81.97,-0.87,134.08,3.91
496,kostomuksha,61,RU,1585199724,85,32.72,64.57,30.58,9.62
497,west wendover,90,US,1585199724,64,39.2,40.74,-114.07,3.36
498,sehithwa,1,BW,1585199724,46,73.96,-20.47,22.72,3.85
499,salina,1,US,1585199725,77,59.0,38.84,-97.61,3.36
500,ulety,95,RU,1585199725,75,20.62,51.36,112.48,22.32
501,sinnamary,99,GF,1585199725,80,77.85,5.38,-52.95,11.72
502,preobrazheniye,64,RU,1585199725,64,52.2,42.9,133.91,6.15
503,vega de alatorre,0,MX,1585199725,73,78.19,20.03,-96.63,10.47
504,eratira,100,GR,1585199726,74,34.9,40.35,21.52,5.86
505,muisne,71,EC,1585199726,84,76.3,0.6,-80.03,2.53
506,mount gambier,40,AU,1585199726,52,69.8,-37.83,140.77,11.41
507,russell,1,US,1585199726,93,55.4,32.35,-85.2,4.03
508,san francisco,20,US,1585199696,57,50.0,37.77,-122.42,16.11
509,douglas,90,US,1585199726,87,48.2,41.3,-96.17,5.82
510,kungurtug,97,RU,1585199727,74,18.14,50.6,97.52,4.43
511,mandalgovi,1,MN,1585199727,40,23.41,45.76,106.27,16.31
512,mogadishu,40,SO,1585199727,70,84.2,2.04,45.34,3.36
513,parvatsar,96,IN,1585199727,41,77.2,26.88,74.77,10.63
514,novoagansk,99,RU,1585199728,97,31.55,61.94,76.66,18.7
515,ulaanbaatar,13,MN,1585199592,29,21.2,47.91,106.88,15.66
516,qui nhon,27,VN,1585199529,51,87.48,13.77,109.23,9.71
517,van wert,1,US,1585199728,75,48.0,40.87,-84.58,5.82
518,strezhevoy,100,RU,1585199728,97,30.07,60.73,77.59,14.9
519,praya,75,CV,1585199729,68,69.8,14.92,-23.51,14.99
520,yulara,37,AU,1585199729,22,89.6,-25.24,130.99,12.75
521,bayir,100,TR,1585199729,48,56.52,37.27,28.22,2.42
522,caravelas,58,BR,1585199729,78,75.13,-17.71,-39.25,9.82
523,ratnagiri,23,IN,1585199730,47,92.14,16.98,73.3,3.27
524,south valley,75,US,1585199435,21,62.01,35.01,-106.68,10.29
525,alta floresta,100,BR,1585199730,90,72.39,-9.88,-56.09,2.24
526,shimanovsk,58,RU,1585199730,87,29.19,52.0,127.7,13.0
527,touros,99,BR,1585199731,71,81.27,-5.2,-35.46,3.71
528,aykhal,78,RU,1585199658,86,8.6,66.0,111.5,8.52
529,mangrol,80,IN,1585199731,50,84.85,21.12,70.12,6.89
530,saint-leu,33,RE,1585199731,77,78.01,-21.15,55.28,1.99
531,augusto correa,95,BR,1585199731,96,73.85,-1.02,-46.63,1.79
532,podporozhye,94,RU,1585199732,78,37.47,60.91,34.17,10.27
533,big bend,2,SZ,1585199732,100,71.6,-26.82,31.93,2.24
534,kavaratti,22,IN,1585199589,68,83.57,10.57,72.64,7.25
535,saint anthony,90,US,1585199732,74,37.99,45.02,-93.22,9.17
536,witham,97,GB,1585199732,94,33.01,51.8,0.64,8.16
537,balkanabat,1,TM,1585199733,31,57.63,39.51,54.37,6.51
538,richards bay,25,ZA,1585199733,79,76.51,-28.78,32.04,31.59
539,gizo,100,SB,1585199733,72,83.03,-8.1,156.84,2.33
540,ypsonas,51,CY,1585199733,81,53.6,34.69,32.96,3.36
541,amasya,86,TR,1585199733,62,46.35,40.67,35.83,2.48
542,shache,68,CN,1585199734,19,57.47,38.42,77.24,8.86
543,churapcha,100,RU,1585199734,91,17.83,62.0,132.43,16.6
544,mwense,98,ZM,1585199735,65,70.79,-10.38,28.7,1.9
545,okhotsk,0,RU,1585199736,91,28.67,59.38,143.3,2.33
546,tolu,3,CO,1585199736,82,76.86,9.52,-75.58,8.12
547,cabedelo,62,BR,1585199736,77,78.8,-6.98,-34.83,2.84
548,puerto penasco,100,MX,1585199737,81,64.99,31.32,-113.53,4.0
549,noumea,73,NC,1585199737,78,76.28,-22.28,166.46,16.11
550,camapua,0,BR,1585199737,80,70.66,-19.53,-54.04,8.19
551,taunggyi,0,MM,1585199737,10,87.15,20.78,97.03,8.79
552,juneau,90,US,1585199703,93,35.6,58.3,-134.42,10.29
553,husavik,21,IS,1585199737,91,27.97,66.04,-17.34,14.83
554,binzhou,100,CN,1585199738,72,46.42,37.37,118.02,24.67
555,sortland,98,NO,1585199738,90,36.61,68.69,15.42,18.72
556,verkhnyaya toyma,100,RU,1585199738,92,36.77,62.23,45.0,10.98
557,nagato,100,JP,1585199738,76,60.33,34.38,131.2,11.05
558,guilin,100,CN,1585199531,80,72.36,25.28,110.29,3.65
559,devils lake,1,US,1585199739,85,24.8,48.11,-98.87,3.36
560,moron,95,AR,1585199739,92,71.01,-34.65,-58.62,4.0
561,kruisfontein,80,ZA,1585199650,60,57.85,-34.0,24.73,23.26
562,mitsamiouli,20,KM,1585199739,83,82.4,-11.38,43.28,8.05
563,ixtapa,5,MX,1585199739,88,73.4,20.7,-105.2,4.7
564,tazovskiy,100,RU,1585199739,97,30.07,67.47,78.7,13.44
565,inverell,70,AU,1585199739,72,72.0,-29.78,151.12,5.01
566,vila franca do campo,24,PT,1585199740,63,55.06,37.72,-25.43,17.4
567,thurso,10,GB,1585199740,85,36.86,58.59,-3.53,8.75
568,pilar,100,BR,1585199740,87,75.74,-9.6,-35.96,2.55
569,lorengau,100,PG,1585199740,83,80.6,-2.02,147.27,15.68
570,omsukchan,79,RU,1585199740,87,13.17,62.53,155.8,5.95
571,frechen,0,DE,1585199741,79,37.99,50.92,6.82,10.29
572,lastoursville,100,GA,1585199741,87,72.88,-0.81,12.73,1.34
573,gondar,61,ET,1585199741,10,70.48,12.6,37.47,7.2
574,florianopolis,29,BR,1585199579,73,69.8,-27.61,-48.5,3.36
575,gunjur,39,GM,1585199741,67,69.55,13.2,-16.73,11.41
576,pecos,1,US,1585199741,22,66.2,31.42,-103.49,6.93
