,City,Cloudiness,Country,Date,Humidity,Temp,Lat,Lng,Wind Speed
0,port elizabeth,100,ZA,1586633707,72,60.8,-33.92,25.57,3.36
1,petropavlovsk-kamchatskiy,40,RU,1586633972,79,23,53.05,158.65,4.47
2,saskylakh,19,RU,1586633972,90,0.82,71.92,114.08,14.94
3,yellowknife,20,CA,1586633846,52,16,62.46,-114.35,12.75
4,ozernovskiy,0,RU,1586633714,91,29.57,51.5,156.52,2.82
5,berlevag,88,NO,1586633746,88,25.02,70.86,29.09,3.15
6,guerrero negro,10,MX,1586633787,49,67.06,27.98,-114.06,17.31
7,mataura,97,NZ,1586633972,76,53.01,-46.19,168.86,3
8,butaritari,95,KI,1586633973,76,83.98,3.07,172.79,13.35
9,trinidad,31,BO,1586633973,48,86,-14.83,-64.9,2.24
10,mumford,88,GH,1586633973,83,81.41,5.26,-0.76,6.35
11,hami,36,CN,1586633973,22,53.04,42.8,93.45,1.7
12,vilyuysk,99,RU,1586633973,97,29.97,63.76,121.62,9.78
13,bluff,100,NZ,1586633732,76,53.01,-46.6,168.33,3
14,bairiki,40,KI,1586633974,83,82.4,1.33,172.98,6.93
15,korla,9,CN,1586633974,41,57.99,41.76,86.15,4
16,vredendal,75,ZA,1586633974,85,65.21,-31.67,18.5,6.13
17,tromso,90,NO,1586633974,95,32,69.65,18.96,20.8
18,new norfolk,75,AU,1586633974,66,51.01,-42.78,147.06,8.05
19,ekimchan,0,RU,1586633975,87,27.52,53.07,132.97,1.7
20,saint-augustin,100,CA,1586633975,96,32.36,51.23,-58.65,5.59
21,college,75,US,1586633975,63,35.01,64.86,-147.8,6.93
22,altamira,68,BR,1586633975,82,79.09,-3.2,-52.21,2.04
23,dikson,100,RU,1586633975,96,14.29,73.51,80.55,10.11
24,hilo,75,US,1586633975,65,81,19.73,-155.09,4.7
25,saint george,1,US,1586633976,41,66.99,37.1,-113.58,4.7
26,upernavik,100,GL,1586633976,89,20.88,72.79,-56.15,0.98
27,eganville,40,CA,1586633976,30,45,45.53,-77.1,11.41
28,hermanus,100,ZA,1586633976,70,71.01,-34.42,19.23,11.99
29,avarua,87,CK,1586633976,88,82.4,-21.21,-159.78,5.82
30,katsuura,75,JP,1586633976,93,50,35.13,140.3,11.41
31,kahului,1,US,1586633977,73,77,20.89,-156.47,13.87
32,tuktoyaktuk,75,CA,1586633977,84,-2.2,69.45,-133.04,6.93
33,hithadhoo,0,MV,1586633977,65,84.56,-0.6,73.08,6.38
34,ushuaia,75,AR,1586633977,70,44.6,-54.8,-68.3,26.4
35,pringsewu,65,ID,1586633744,89,74.89,-5.36,104.97,1.74
36,middelburg,7,ZA,1586633978,35,61.21,-25.78,29.46,2.53
37,provideniya,99,RU,1586633978,97,30.79,64.38,-173.3,4.03
38,zhigansk,98,RU,1586633978,97,24.91,66.77,123.37,11.34
39,port lincoln,81,AU,1586633978,64,56.75,-34.73,135.87,7.05
40,nkayi,90,CG,1586633978,86,75.79,-4.18,13.29,2.59
41,honningsvag,100,NO,1586633978,92,29.82,70.98,25.97,6.53
42,busselton,85,AU,1586633978,57,70,-33.65,115.33,8.48
43,poshekhonye,0,RU,1586633978,89,27.95,58.5,39.14,1.92
44,clyde river,75,CA,1586633979,92,6.8,70.47,-68.59,14.99
45,albany,75,US,1586633979,52,46.99,42.6,-73.97,13.87
46,tiksi,34,RU,1586633979,92,11.32,71.69,128.87,21.36
47,hobart,75,AU,1586633980,66,51.01,-42.88,147.33,8.05
48,east london,100,ZA,1586633864,74,73.42,-33.02,27.91,5.82
49,avera,1,US,1586633980,20,75,33.19,-82.53,9.17
50,kununurra,97,AU,1586633980,83,77,-15.77,128.73,4.7
51,karratha,0,AU,1586633981,53,81.09,-20.74,116.85,9.17
52,kapaa,20,US,1586633684,65,78.8,22.08,-159.32,5.82
53,tubigan,1,PH,1586633981,74,76.08,8.53,124.31,2.71
54,saldanha,97,ZA,1586633981,88,64.4,-33.01,17.94,8.05
55,ribeira grande,20,PT,1586633981,77,64.4,38.52,-28.7,3.36
56,lakes entrance,98,AU,1586633981,68,53.01,-37.88,147.98,5.01
57,kendari,100,ID,1586633982,92,74.07,-3.94,122.5,2.19
58,rikitea,78,PF,1586633982,74,77.04,-23.12,-134.97,1.34
59,sompeta,0,IN,1586633982,66,80.13,18.93,84.6,9.08
60,hue,99,VN,1586633982,93,74.3,16.47,107.6,2.71
61,sisimiut,96,GL,1586633982,79,35.49,66.94,-53.67,6.69
62,punta arenas,40,CL,1586633945,61,50,-53.15,-70.92,20.8
63,murillo,75,CO,1586633982,62,84.2,4.87,-75.17,5.82
64,saint-philippe,33,RE,1586633983,78,75.2,-21.36,55.77,4.7
65,bredasdorp,100,ZA,1586633983,56,71.6,-34.53,20.04,9.17
66,cabo san lucas,75,MX,1586633695,49,80.01,22.89,-109.91,23.04
67,ancud,20,CL,1586633983,62,53.6,-41.87,-73.82,8.05
68,ilulissat,75,GL,1586633785,92,32,69.22,-51.1,9.17
69,tasiilaq,40,GL,1586633983,90,32,65.61,-37.64,11.41
70,bambous virieux,75,MU,1586633689,88,78.01,-20.34,57.76,18.34
71,la ronge,75,CA,1586633984,61,17.6,55.1,-105.28,19.46
72,poum,54,NC,1586633984,71,78.94,-20.23,164.02,12.24
73,qaanaaq,91,GL,1586633984,75,14.05,77.48,-69.36,2.35
74,vao,30,NC,1586633984,74,76.21,-22.67,167.48,13.49
75,laguna,90,US,1586633769,72,66,38.42,-121.42,8.05
76,mount isa,7,AU,1586633765,24,68,-20.73,139.5,9.17
77,dzhebariki-khaya,100,RU,1586633985,96,25.57,62.22,135.8,4.9
78,narsaq,75,GL,1586633771,23,50,60.92,-46.05,36.91
79,heishan,0,CN,1586633985,52,44.83,41.69,122.11,12.71
80,dalianwan,4,CN,1586633985,52,48.2,39.03,121.69,2.24
81,airai,98,TL,1586633744,72,60.13,-8.93,125.41,1.01
82,oranjemund,1,NA,1586633737,91,59.18,-28.55,16.43,1.68
83,dunedin,100,NZ,1586633808,87,53.01,-45.87,170.5,4
84,chokurdakh,100,RU,1586633986,97,27.25,70.63,147.92,14.99
85,puerto suarez,0,BO,1586633986,38,87.8,-18.95,-57.8,5.82
86,cancun,40,MX,1586633842,62,86,21.17,-86.85,19.46
87,arman,98,RU,1586633777,92,21.34,59.7,150.17,3.69
88,inta,13,RU,1586633986,94,14.36,66.03,60.17,5.99
89,luwingu,100,ZM,1586633986,66,61.34,-10.26,29.93,5.14
90,ponta do sol,75,PT,1586633986,68,64.4,32.67,-17.1,13.87
91,mandalgovi,0,MN,1586633881,35,37.06,45.76,106.27,11.72
92,concordia,20,AR,1586633987,44,77,-31.39,-58.02,6.93
93,shimoda,100,JP,1586633987,90,50,34.67,138.95,1.99
94,celestun,0,MX,1586633987,51,87.73,20.87,-90.4,9.44
95,pevek,62,RU,1586633987,91,6.39,69.7,170.31,13.24
96,bethel,75,US,1586633940,31,55,41.37,-73.41,10.29
97,severo-kurilsk,63,RU,1586633987,93,29.23,50.68,156.12,8.57
98,gamba,100,GA,1586633933,87,77.65,-2.65,10,5.21
99,thompson,90,CA,1586633988,63,26.6,55.74,-97.86,3.36
100,brae,100,GB,1586633988,100,46.4,60.4,-1.35,25.28
101,bardiyah,0,LY,1586633890,82,59.02,31.76,25.09,9.31
102,luwuk,20,ID,1586633781,71,79.57,-0.95,122.79,4.32
103,hualmay,21,PE,1586633988,67,76.78,-11.1,-77.61,9.75
104,mahibadhoo,8,MV,1586633989,68,83.79,3.78,72.97,2.48
105,san ignacio,30,BZ,1586633989,44,96.8,17.16,-89.07,4.7
106,luderitz,0,NA,1586633819,87,57.2,-26.65,15.16,12.75
107,cidreira,1,BR,1586633989,66,67.57,-30.18,-50.21,7.11
108,the valley,20,AI,1586633766,62,87.8,18.22,-63.06,9.17
109,bay city,1,US,1586633783,32,57.2,43.59,-83.89,16.11
110,isangel,20,VU,1586633989,94,69.8,-19.55,169.27,7.23
111,namwala,97,ZM,1586633990,62,64.62,-15.75,26.44,4.25
112,camocim,100,BR,1586633990,88,79.03,-2.9,-40.84,5.88
113,svetlaya,4,RU,1586633990,90,31.08,46.54,138.33,5.86
114,sao filipe,86,CV,1586633797,73,75.61,14.9,-24.5,12.48
115,semnan,54,IR,1586633990,41,55.94,35.57,53.4,4.16
116,nizwa,6,OM,1586633990,30,78.33,22.93,57.53,5.37
117,puerto ayora,75,EC,1586633728,66,86,-0.74,-90.35,11.41
118,tautira,100,PF,1586633748,66,86,-17.73,-149.15,3.36
119,mnogovershinnyy,85,RU,1586633782,92,27.86,53.94,139.92,8.1
120,ciudad del maiz,42,MX,1586633991,28,88,22.4,-99.6,4
121,knysna,98,ZA,1586633991,88,62.6,-34.04,23.05,3.36
122,pandamatenga,31,BW,1586633991,61,65.34,-18.53,25.63,2.68
123,la asuncion,75,VE,1586633991,55,89.6,11.03,-63.86,21.92
124,bonfim,91,BR,1586633991,40,92.01,3.08,-59.95,6.76
125,mar del plata,33,AR,1586633695,49,73.99,-38,-57.56,16.11
126,namibe,0,AO,1586633992,65,77.7,-15.2,12.15,2.46
127,castro,15,BR,1586633992,58,61.45,-24.79,-50.01,1.39
128,chuy,33,UY,1586633992,66,65.95,-33.7,-53.46,7
129,erzin,20,TR,1586633992,77,63,36.96,36.2,5.82
130,port alfred,77,ZA,1586633992,91,68,-33.59,26.89,7
131,dandong,0,CN,1586633992,59,42.87,40.13,124.39,4.05
132,egvekinot,0,RU,1586633993,82,15.24,66.32,-179.17,1.83
133,bathsheba,20,BB,1586633792,55,86,13.22,-59.52,14.99
134,tuatapere,53,NZ,1586633993,76,53.01,-46.13,167.68,3
135,nome,20,US,1586633810,85,24.8,64.5,-165.41,9.17
136,hay river,40,CA,1586633993,66,14,60.82,-115.8,8.05
137,maldonado,40,UY,1586633993,73,69.8,-34.67,-54.92,10.29
138,khatanga,32,RU,1586633993,93,-1.05,71.97,102.5,8.01
139,lethem,95,GY,1586633994,40,92.1,3.38,-59.8,11.32
140,sheboygan,1,US,1586633994,52,62.6,43.73,-87.93,17.22
141,majene,100,ID,1586633994,69,76.77,-3.54,118.97,4.56
142,iroquois falls,75,CA,1586633820,41,39.2,48.77,-80.68,8.05
143,maarianhamina,100,AX,1586633994,64,39.2,60.1,19.93,10.29
144,nikolskoye,20,RU,1586633994,94,32,59.7,30.79,4.47
145,cabedelo,20,BR,1586633994,66,87.8,-6.98,-34.83,11.41
146,lossiemouth,100,GB,1586633995,66,57,57.72,-3.28,20.8
147,baracoa,0,CU,1586633995,67,82.11,20.35,-74.5,6.76
148,zlitan,0,LY,1586633995,58,60.98,32.47,14.57,12.15
149,tubuala,40,PA,1586633995,49,93.2,9.52,-79.03,5.82
150,porto novo,40,BJ,1586633995,74,86,6.5,2.6,10.29
151,galveston,90,US,1586633995,69,79,29.37,-94.97,16.11
152,codrington,95,AU,1586633869,70,52.54,-38.27,141.97,11.03
153,alice springs,11,AU,1586633715,24,57.2,-23.7,133.88,5.82
154,puntarenas,100,CR,1586633996,35,89.6,9.98,-84.84,11.41
155,vaini,20,TO,1586633996,93,66.2,-21.2,-175.2,2.24
156,souillac,75,MU,1586633825,88,78.01,-20.52,57.52,18.34
157,yulara,100,AU,1586633996,24,59,-25.24,130.99,6.93
158,byron bay,0,AU,1586633787,100,66,-28.65,153.62,10.63
159,sangmelima,99,CM,1586633997,67,65.17,2.93,11.98,4.43
160,pisco,0,PE,1586633756,30,73,-13.7,-76.22,11.41
161,atuona,42,PF,1586633997,70,82.45,-9.8,-139.03,7.76
162,ngunguru,35,NZ,1586633997,98,55.99,-35.62,174.5,1.99
163,sao joao da barra,90,BR,1586633997,78,75.2,-21.64,-41.05,6.93
164,lebu,0,CL,1586633998,55,57.85,-37.62,-73.65,16.91
165,alofi,94,NU,1586633998,94,73.4,-19.06,-169.92,3.36
166,hambantota,26,LK,1586633998,81,80.82,6.12,81.12,10.56
167,kudahuvadhoo,8,MV,1586633836,63,84.69,2.67,72.89,4.92
168,henties bay,3,NA,1586633794,54,73.35,-22.12,14.28,5.86
169,rawson,0,AR,1586633998,30,62.53,-43.3,-65.1,11.56
170,chaumont,6,FR,1586633998,39,66.2,48.12,5.13,3.36
171,nanortalik,100,GL,1586633934,72,37.58,60.14,-45.24,28.25
172,opuwo,5,NA,1586633999,45,72.28,-18.06,13.84,7.74
173,cape town,40,ZA,1586633843,88,66,-33.93,18.42,18.34
174,vardo,61,NO,1586633999,89,27.61,70.37,31.11,4.99
175,coihaique,40,CL,1586633832,53,50,-45.58,-72.07,10.29
176,mataram,40,ID,1586633993,94,75.2,-8.58,116.12,6.78
177,cobija,76,BO,1586634000,56,85.41,-11.03,-68.77,1.57
178,yilan,75,TW,1586633871,100,66,24.76,121.75,9.17
179,salalah,40,OM,1586633917,74,82.4,17.02,54.09,8.05
180,barrow,90,US,1586633736,84,-2.2,71.29,-156.79,11.41
181,comodoro rivadavia,0,AR,1586633932,27,64.4,-45.87,-67.5,16.11
182,simi,64,SL,1586634000,72,82.51,9.57,-12.35,4.99
183,iracoubo,100,GF,1586634000,74,80.13,5.48,-53.2,11.01
184,qinhuangdao,0,CN,1586634000,47,47.75,39.93,119.59,11.3
185,sokolo,24,ML,1586634001,28,88.77,14.73,-6.12,7.47
186,jamestown,20,US,1586633911,52,46.99,42.1,-79.24,14.99
187,komsomolskiy,90,UZ,1586633874,76,55.4,40.43,71.72,2.24
188,gebre guracha,18,ET,1586634001,32,59.49,9.8,38.4,2.62
189,vetas,75,CO,1586634001,74,80.6,7.31,-72.87,6.93
190,leningradskiy,94,RU,1586634001,87,12.49,69.38,178.42,3.78
191,lata,75,PT,1586634002,77,60.01,40.16,-8.33,8.05
192,bilma,100,NE,1586634002,14,80.87,18.69,12.92,5.66
193,tigil,0,RU,1586634002,90,16.03,57.8,158.67,2.89
194,jacareacanga,93,BR,1586634002,78,80.46,-6.22,-57.75,3.02
195,port hawkesbury,90,CA,1586634002,64,42.01,45.62,-61.35,16.11
196,beringovskiy,95,RU,1586634002,94,11.43,63.05,179.32,10.09
197,manali,20,IN,1586634002,83,84,13.17,80.27,6.42
198,corn island,79,NI,1586634003,76,82.47,12.17,-83.04,13.11
199,arlit,2,NE,1586634003,11,87.49,18.74,7.39,4.18
200,iqaluit,40,CA,1586633824,79,23,63.75,-68.51,9.17
201,hoa binh,20,VN,1586634003,94,73.4,20.81,105.34,3.36
202,mahebourg,75,MU,1586633719,88,78.01,-20.41,57.7,18.34
203,saint albans,54,GB,1586633961,45,66.99,51.75,-0.33,4.7
204,kaitangata,86,NZ,1586634003,85,51.01,-46.28,169.85,1.99
205,sambava,5,MG,1586634004,82,76.05,-14.27,50.17,8.84
206,malanje,96,AO,1586634004,69,66.61,-9.54,16.34,2.64
207,uppsala,100,SE,1586634004,52,46.99,60,17.75,8.05
208,mayo,1,US,1586634004,30,62.01,38.89,-76.51,13.87
209,camacha,40,PT,1586634004,67,64.4,33.08,-16.33,17.22
210,dingle,14,PH,1586634004,79,76.01,11,122.67,5.64
211,sarakhs,100,IR,1586634004,93,55.4,36.54,61.16,4.7
212,margate,8,GB,1586634005,87,63,51.38,1.39,5.82
213,araouane,0,ML,1586633795,10,88.83,18.9,-3.53,5.86
214,quang ngai,100,VN,1586633745,88,76.24,15.12,108.8,2.24
215,carnarvon,14,AU,1586634005,100,75.2,-24.87,113.63,9.17
216,sindou,79,BF,1586634005,32,89.62,10.67,-5.17,4.12
217,taft,40,IR,1586634005,31,73.4,31.75,54.21,4.7
218,san jose,40,US,1586633958,67,64.99,37.34,-121.89,2.95
219,benalla,3,AU,1586634006,100,42.8,-36.55,145.98,4.7
220,cherskiy,100,RU,1586634006,96,13.78,68.75,161.3,12.44
221,terrace,5,CA,1586634006,26,46.4,54.52,-128.6,12.75
222,evensk,100,RU,1586634006,90,8.87,61.95,159.23,4.12
223,binabalian,0,PH,1586634006,73,80.87,16.42,119.93,5.93
224,solton,0,RU,1586634006,91,30.25,52.84,86.48,2.46
225,ketchikan,1,US,1586633987,29,48.2,55.34,-131.65,16.11
226,that phanom,63,TH,1586634007,72,81,16.94,104.71,5.59
227,riyadh,75,SA,1586633724,31,78.8,24.69,46.72,9.17
228,koumac,15,NC,1586634007,71,77.54,-20.57,164.28,7.96
229,roald,100,NO,1586633860,76,48.2,62.58,6.13,12.75
230,hobyo,15,SO,1586634007,69,82.9,5.35,48.53,14.5
231,nenjiang,0,CN,1586634007,62,41.25,49.18,125.22,5.93
232,mount gambier,90,AU,1586634007,71,51.8,-37.83,140.77,6.93
233,castanos,40,MX,1586634008,45,95,26.78,-101.42,6.46
234,zaysan,52,KZ,1586634008,49,41.2,47.47,84.87,2.35
235,boende,100,CD,1586634008,71,77.22,-0.22,20.87,2.24
236,watertown,40,US,1586634008,25,53.01,42.37,-71.18,18.34
237,krivosheino,0,RU,1586634009,97,29.82,57.34,83.93,4.52
238,gashua,100,NG,1586634009,12,85.26,12.87,11.05,6.8
239,kyzyl,27,RU,1586634009,66,34.54,51.7,94.45,1.19
240,moron,2,AR,1586634009,49,75,-34.65,-58.62,6.93
241,leshukonskoye,94,RU,1586633869,97,23.05,64.9,45.76,4
242,puerto del rosario,40,ES,1586634009,64,69.8,28.5,-13.86,18.34
243,bousso,98,TD,1586634010,34,86.5,10.48,16.71,9.19
244,mehamn,85,NO,1586634010,92,20.98,71.04,27.85,4.47
245,aklavik,20,CA,1586633863,72,12.2,68.22,-135.01,9.17
246,opatija,1,HR,1586634010,47,62.6,45.34,14.31,8.05
247,victoria,40,HK,1586633758,88,68,22.29,114.16,8.05
248,samarai,77,PG,1586633745,69,78.73,-10.62,150.67,1.57
249,havoysund,88,NO,1586634011,86,28.4,71,24.66,8.05
250,shieli,66,KZ,1586634011,41,61.05,44.17,66.75,8.01
251,sitka,1,US,1586633845,44,41,57.05,-135.33,4.7
252,lahaina,1,US,1586633949,73,77,20.88,-156.68,13.87
253,batamshinskiy,27,KZ,1586634011,80,41,50.56,58.27,4.47
254,broome,40,US,1586634012,36,48.99,42.25,-75.83,20.8
255,fortuna,90,US,1586634012,100,62.01,40.6,-124.16,8.05
256,oussouye,75,SN,1586634012,88,87.8,12.48,-16.55,4.7
257,balkanabat,0,TM,1586634012,57,56.07,39.51,54.37,7.27
258,rosetta,0,EG,1586634012,72,62.6,31.4,30.42,8.05
259,taoudenni,0,ML,1586634012,10,90.86,22.68,-3.98,6.13
260,qasigiannguit,75,GL,1586634013,91,32,68.82,-51.19,9.17
261,klaksvik,99,FO,1586634013,100,44.6,62.23,-6.59,12.75
262,port macquarie,3,AU,1586633847,66,57.2,-31.43,152.92,1.12
263,dauphin,90,CA,1586634013,78,32,51.15,-100.05,16.11
264,buritizeiro,98,BR,1586634013,72,76.08,-17.35,-44.96,0.83
265,antalaha,17,MG,1586633837,83,76.77,-14.9,50.28,11.88
266,bilibino,90,RU,1586634013,89,9.43,68.05,166.44,1.03
267,enshi,59,CN,1586634014,70,49.86,30.3,109.48,0.92
268,lavrentiya,97,RU,1586634014,98,30.47,65.58,-171,10.71
269,makurdi,100,NG,1586634014,68,79.81,7.74,8.51,5.1
270,noumea,31,NC,1586633918,82,73.99,-22.28,166.46,4.18
271,prince george,1,CA,1586633950,54,39,53.92,-122.75,4.7
272,opunake,31,NZ,1586634014,80,60.01,-39.46,173.86,8.01
273,hare bay,75,CA,1586634014,64,35.6,48.85,-54.01,25.28
274,jalu,35,LY,1586634015,29,64.13,29.03,21.55,6.58
275,kodiak,90,US,1586634015,76,41,57.79,-152.41,16.11
276,saint anthony,1,US,1586634015,24,60.01,45.02,-93.22,6.93
277,tual,83,ID,1586634015,70,83.46,-5.67,132.75,0.98
278,shache,100,CN,1586634015,19,58.37,38.42,77.24,2.51
279,freeport,20,US,1586633769,25,55.4,40.66,-73.58,19.46
280,faanui,72,PF,1586634015,76,82.8,-16.48,-151.75,11.56
281,vanimo,41,PG,1586634016,85,79.43,-2.67,141.3,2.82
282,bend,1,US,1586634015,15,62.6,44.06,-121.32,16.11
283,kasongo-lunda,86,CD,1586634016,77,73.18,-6.47,16.82,1.57
284,kruisfontein,89,ZA,1586634016,54,62.08,-34,24.73,2.26
285,kerrobert,90,CA,1586634017,53,25,51.92,-109.13,16.11
286,saint andrews,20,US,1586634017,19,73,34.05,-81.13,9.17
287,jumla,0,NP,1586634017,22,44.71,29.27,82.18,5.26
288,callaguip,5,PH,1586634017,86,76.77,18.07,120.49,3.15
289,yelkhovka,100,RU,1586634017,39,46.4,53.87,50.28,2.24
290,portobelo,40,PA,1586634017,49,93.2,9.55,-79.65,5.82
291,shelburne,90,CA,1586634018,52,46.4,44.08,-80.2,9.17
292,coquimbo,85,CL,1586634018,68,64.4,-29.95,-71.34,9.17
293,aksu,100,CN,1586634018,21,58.23,41.12,80.26,1.66
294,georgetown,20,MY,1586633951,83,84.2,5.41,100.34,1.12
295,bereda,20,ES,1586634018,93,55.99,43.27,-7.54,4.7
296,tabasalu,100,EE,1586634019,80,37.99,59.43,24.53,8.05
297,esperance,99,AU,1586634019,68,68,-33.87,121.9,18.34
298,ola,94,RU,1586634019,91,16.9,59.58,151.28,5.61
299,pochutla,75,MX,1586634019,49,91.99,15.74,-96.47,13.87
300,acarau,100,BR,1586633918,86,79.45,-2.89,-40.12,5.61
301,smithers,5,CA,1586633924,35,39.2,54.78,-127.17,3.36
302,grindavik,75,IS,1586633830,80,44.6,63.84,-22.43,20.8
303,ous,100,RU,1586634020,89,35.53,60.91,61.52,5.19
304,hovd,100,MN,1586634020,39,38.35,48.01,91.64,1.74
305,aviles,75,ES,1586634020,93,55.4,43.55,-5.92,3.36
306,kyra,0,RU,1586634021,44,37.11,49.58,111.98,3.29
307,arraial do cabo,75,BR,1586634021,94,69.8,-22.97,-42.03,6.93
308,nokaneng,44,BW,1586634021,47,73.29,-19.67,22.27,2.51
309,bengkulu,5,ID,1586634021,80,78.42,-3.8,102.27,3.15
310,ada,20,US,1586634022,44,64,43.42,-116.13,25.28
311,neyyattinkara,20,IN,1586634022,74,84.2,8.4,77.08,5.82
312,fort nelson,75,CA,1586634022,26,33.8,58.81,-122.7,8.05
313,yen bai,99,VN,1586634022,77,69.82,21.7,104.87,1.54
314,kemijarvi,52,FI,1586634022,95,19.99,66.71,27.43,5.26
315,vila velha,75,BR,1586634023,83,79,-20.33,-40.29,8.05
316,pocone,19,BR,1586634023,64,83.88,-16.26,-56.62,1.5
317,dawson creek,20,CA,1586634023,61,32,55.77,-120.24,11.41
318,baillif,75,GP,1586633750,62,86,16.02,-61.75,10.29
319,krasnoyarsk,0,RU,1586633793,79,24.8,56.01,92.79,2.08
320,na klang,51,TH,1586634023,61,86,17.31,102.19,1.01
321,touros,20,BR,1586634023,66,86,-5.2,-35.46,11.41
322,wonthaggi,69,AU,1586634024,91,55.99,-38.6,145.59,4
323,tarrafal,77,CV,1586634024,51,82.4,15.28,-23.77,11.41
324,tazovskiy,100,RU,1586634024,97,34.92,67.47,78.7,16.33
325,saravena,78,CO,1586634024,43,90.1,6.95,-71.88,2.53
326,qaqortoq,75,GL,1586634024,23,50,60.72,-46.03,36.91
327,tandil,90,AR,1586634009,43,72,-37.32,-59.13,7
328,deputatskiy,79,RU,1586633911,93,23.14,69.3,139.9,15.84
329,nouakchott,0,MR,1586634025,45,84.2,18.09,-15.98,14.99
330,kemise,49,ET,1586634025,32,71.13,10.72,39.87,1.74
331,praia da vitoria,20,PT,1586634025,77,64.4,38.73,-27.07,11.27
332,velyka pysarivka,43,UA,1586634025,68,39.29,50.43,35.48,12.75
333,havelock,1,US,1586634025,25,66.2,34.88,-76.9,13.87
334,constitucion,60,CL,1586634026,65,60.35,-35.33,-72.42,13.62
335,chitral,100,PK,1586634026,23,53.29,35.85,71.79,4.94
336,fort frances,40,CA,1586633952,38,42.8,48.6,-93.4,12.75
337,narasannapeta,0,IN,1586634026,89,77.81,18.42,84.05,5.88
338,monrovia,5,LR,1586633943,81,81.72,6.3,-10.8,6.22
339,tessalit,0,ML,1586634026,11,85.19,20.2,1.01,5.46
340,tokaj,98,HU,1586634027,34,53.6,48.12,21.42,9.17
341,ewing,75,US,1586634027,34,57,40.27,-74.8,12.75
342,san cristobal,40,VE,1586633933,41,93.2,7.77,-72.22,23.04
343,puerto quijarro,1,BO,1586634027,52,84.69,-17.78,-57.77,3.2
344,rudsar,75,IR,1586634027,100,50,37.14,50.29,0.94
345,inhambane,92,MZ,1586634027,79,73.63,-23.86,35.38,4.61
346,manosque,0,FR,1586634027,58,62.01,43.83,5.79,1.12
347,karaton,20,ID,1586634028,88,78.8,-6.34,106.1,4.7
348,kamra,100,PK,1586634028,72,70,33.75,73.51,9.17
349,port hedland,0,AU,1586634028,78,75.2,-20.32,118.57,5.82
350,soure,56,BR,1586634028,86,80.82,-0.72,-48.52,10.87
351,skjervoy,100,NO,1586634028,88,32.76,70.03,20.97,14.72
352,yarada,0,IN,1586634028,81,80.29,17.65,83.27,8.39
353,strezhevoy,93,RU,1586633895,97,39.2,60.73,77.59,6.71
354,tahe,0,CN,1586634029,73,36.18,52.33,124.73,3.27
355,kralendijk,100,BQ,1586634029,62,87.8,12.15,-68.27,26.4
356,lac-megantic,90,CA,1586634029,69,37,45.58,-70.88,14.99
357,khilok,0,RU,1586634029,50,36.7,51.37,110.47,2.82
358,pangnirtung,75,CA,1586634029,62,23,66.15,-65.71,2.24
359,bosaso,5,SO,1586634030,67,82.83,11.28,49.18,4.16
360,olavarria,78,AR,1586634030,51,72,-36.89,-60.32,4
361,kavieng,99,PG,1586634030,73,83.55,-2.57,150.8,4.92
362,anloga,20,GH,1586634030,74,84.2,5.79,0.9,9.17
363,smoky lake,100,CA,1586634030,85,24.39,54.12,-112.47,15.57
364,moussoro,100,TD,1586634031,12,85.46,13.64,16.49,15.05
365,betare oya,100,CM,1586634031,70,66.78,5.6,14.08,2.35
366,ostrovnoy,20,RU,1586634031,93,15.76,68.05,39.51,11.79
367,makkaveyevo,0,RU,1586634031,53,23,51.75,113.95,4.47
368,russell,1,US,1586633821,26,72,32.35,-85.2,4.7
369,nizhniy ingash,0,RU,1586634031,93,28.81,56.2,96.53,3.8
370,sakaiminato,90,JP,1586634032,66,50,35.55,133.23,6.93
371,yeppoon,95,AU,1586634032,94,71.6,-23.13,150.73,3.62
372,san quintin,8,MX,1586634032,63,63,30.48,-115.95,18.21
373,namatanai,100,PG,1586634032,76,81.88,-3.67,152.43,3.8
374,batemans bay,5,AU,1586634032,73,48.99,-35.72,150.18,9.33
375,fairbanks,75,US,1586634002,63,35.01,64.84,-147.72,6.93
376,kita,95,ML,1586634033,32,89.42,13.03,-9.49,9.69
377,steamboat springs,40,US,1586633861,30,62.6,40.48,-106.83,14.99
378,guangyuan,4,CN,1586633973,82,37.99,32.44,105.82,3.09
379,acajutla,96,SV,1586634033,66,88,13.59,-89.83,1.99
380,velyka bahachka,0,UA,1586634033,68,39.31,49.79,33.72,11.79
381,kavaratti,0,IN,1586634033,68,84.34,10.57,72.64,3.31
382,muravlenko,100,RU,1586634034,94,35.06,63.79,74.52,17.16
383,benjamin constant,40,BR,1586634034,74,86,-4.38,-70.03,4.7
384,ekhabi,7,RU,1586634034,97,27.43,53.51,142.97,14.76
385,ipixuna,75,BR,1586634034,88,82.4,-1.76,-48.8,6.93
386,new castle,40,US,1586633964,37,55.4,41,-80.35,11.41
387,sengiley,100,RU,1586634035,80,39.2,53.96,48.79,6.71
388,morrope,20,PE,1586634035,29,66.2,-6.54,-80.01,21.92
389,ambilobe,0,MG,1586634035,84,73.67,-13.2,49.05,4.72
390,taybad,100,IR,1586634035,59,63.64,34.74,60.78,6.17
391,longyearbyen,20,SJ,1586634035,70,-4,78.22,15.64,4.65
392,khash,98,IR,1586634035,22,70.63,28.22,61.22,6.69
393,boyolangu,78,ID,1586634035,82,75.99,-8.12,111.89,2.37
394,south lake tahoe,1,US,1586633801,50,64.4,38.93,-119.98,5.82
395,maesteg,0,GB,1586633999,71,62.6,51.61,-3.66,9.17
396,verkhniye sergi,72,RU,1586634036,78,35.38,56.65,59.56,5.1
397,seydi,100,TM,1586634036,65,66.9,39.48,62.91,6.02
398,pozo colorado,0,PY,1586634036,38,78.49,-23.49,-58.8,2.71
399,abnub,0,EG,1586634037,42,68,27.27,31.15,8.05
400,paamiut,100,GL,1586634037,89,34.3,61.99,-49.67,5.01
401,eqbaliyeh,40,IR,1586634037,93,51.8,35.3,51.54,11.41
402,holme,100,DK,1586634037,93,46.99,56.11,10.17,5.82
403,atasu,75,KZ,1586634037,54,41.23,48.68,71.64,9.51
404,kualakapuas,90,ID,1586634037,100,77,-3.01,114.39,3.36
405,flin flon,75,CA,1586634038,44,21.2,54.77,-101.86,14.99
406,wattegama,13,LK,1586634038,86,75.4,6.8,81.48,2.98
407,praia,66,CV,1586634038,51,82.4,14.92,-23.51,11.41
408,maniitsoq,91,GL,1586634038,72,38.53,65.42,-52.9,4.74
409,launceston,1,AU,1586634038,87,48.99,-41.45,147.17,1.12
410,dhone,0,IN,1586634039,38,80.38,15.42,77.88,9.64
411,rialma,18,BR,1586634039,70,76.51,-15.31,-49.58,2.24
412,telimele,48,GN,1586634039,68,77.04,10.92,-13.33,5.03
413,bon air,1,US,1586634039,29,64.99,37.52,-77.56,10.29
414,kattivakkam,20,IN,1586634039,83,84,13.22,80.32,7.14
415,santa ines,17,BR,1586634039,90,79.3,-3.67,-45.38,3.33
416,batagay-alyta,100,RU,1586634039,86,18.54,67.8,130.41,3.67
417,bajitpur,14,BD,1586634040,56,75.97,24.22,90.95,2.8
418,hasaki,75,JP,1586634040,93,46.4,35.73,140.83,6.93
419,bhola,0,BD,1586634040,79,77.09,22.68,90.65,6.06
420,wilson,1,US,1586634040,20,69.01,36.15,-86.28,8.05
421,santa isabel do rio negro,100,BR,1586633808,86,77.2,-0.41,-65.02,6.85
422,tamasane,0,BW,1586634040,34,66.24,-22.42,27.4,2.77
423,birao,79,CF,1586634041,12,85.48,10.28,22.79,3.51
424,kirakira,95,SB,1586634041,76,82.71,-10.45,161.92,7.09
425,sawakin,36,SD,1586634041,71,74.05,19.11,37.33,11.59
426,sadiqabad,90,PK,1586634041,25,86.13,28.31,70.13,1.43
427,huarmey,47,PE,1586634041,63,79.27,-10.07,-78.15,9.64
428,qingyuan,75,CN,1586634042,72,64,23.7,113.03,17.9
429,kiunga,97,PG,1586634042,97,73.94,-6.12,141.29,1.3
430,requena,99,ES,1586634042,55,64.4,39.49,-1.1,8.05
431,geraldton,9,AU,1586633745,93,66.99,-28.77,114.6,5.82
432,abomsa,81,ET,1586634042,31,73.17,9.98,39.98,5.61
433,liverpool,0,GB,1586633943,87,59,53.41,-2.98,4.7
434,kissidougou,31,GN,1586634043,70,75.52,9.18,-10.1,6.26
435,broken hill,0,AU,1586634043,65,44.6,-31.95,141.43,4.7
436,ranong,2,TH,1586634043,83,79.18,9.97,98.63,3.06
437,plettenberg bay,100,ZA,1586633852,64,64.72,-34.05,23.37,4
438,areia branca,63,BR,1586634043,81,81.39,-4.96,-37.14,13.18
439,buala,100,SB,1586634044,88,78.71,-8.14,159.59,7.9
440,pierrelatte,0,FR,1586634044,44,60.8,44.38,4.7,4.7
441,san sebastian,40,ES,1586633937,87,61,43.31,-1.98,1.12
442,san carlos,51,VE,1586634044,25,98.1,9.66,-68.58,4.56
443,flinders,0,AU,1586634044,57,54,-34.58,150.86,11.41
444,athabasca,99,CA,1586633774,79,27.46,54.72,-113.29,14.29
445,bokaro,0,IN,1586634044,16,80.78,23.78,85.97,2.95
446,hazorasp,100,UZ,1586634045,76,55.4,41.32,61.07,6.93
447,talcahuano,0,CL,1586634045,48,66.2,-36.72,-73.12,14.99
448,adrar,0,MR,1586634045,12,86,20.5,-10.07,11.25
449,moose factory,90,CA,1586634045,93,32,51.26,-80.61,6.93
450,retalhuleu,40,GT,1586633797,53,96.8,14.53,-91.68,6.93
451,acapulco,40,MX,1586634046,74,84.2,16.86,-99.89,4.7
452,samandag,20,TR,1586634046,77,60.8,36.08,35.98,5.82
453,vuktyl,87,RU,1586634046,94,17.44,63.86,57.31,2.55
454,waipawa,49,NZ,1586634046,82,59,-41.41,175.52,19.46
455,lodwar,48,KE,1586634046,34,88.65,3.12,35.6,21.27
456,espumoso,0,BR,1586634046,55,65.66,-28.72,-52.85,5.68
457,neiafu,20,TO,1586634047,94,68,-18.65,-173.98,10.51
458,sorland,100,NO,1586634047,78,35.38,67.67,12.69,12.19
459,santa maria,1,BR,1586634047,63,67.1,-29.68,-53.81,4.47
460,arantangi,0,IN,1586634047,75,79.66,10.17,78.98,6.46
461,menongue,68,AO,1586634048,64,63.03,-14.66,17.69,3.67
462,olean,40,US,1586633975,48,45,42.08,-78.43,9.17
463,virginia beach,1,US,1586633989,19,64.4,36.85,-75.98,9.17
464,hanzhong,0,CN,1586634048,45,44.85,33.07,107.03,0.81
465,shemgang,50,BT,1586634048,33,52.45,27.22,90.66,5.3
466,wajima,55,JP,1586634048,58,47.03,37.4,136.9,5.19
467,najran,40,SA,1586634049,27,86,17.49,44.13,6.93
468,biak,47,ID,1586634049,72,79.39,-0.91,122.88,5.19
469,oistins,20,BB,1586634049,55,86,13.07,-59.53,14.99
470,shihezi,97,CN,1586633757,36,52.07,44.3,86.03,4.63
471,ndele,100,CF,1586634049,70,76.28,8.41,20.65,1.68
472,christchurch,7,NZ,1586633776,87,60.01,-43.53,172.63,6.93
473,harku,100,EE,1586634050,80,37.99,59.13,24.37,6.93
474,burley,40,US,1586634050,44,59,42.54,-113.79,19.46
475,goba,7,ET,1586634050,41,52.74,7.02,39.98,2.55
476,hofn,93,IS,1586634050,77,38.48,64.25,-15.21,20.15
477,manuk mangkaw,0,PH,1586634051,69,82.54,4.8,119.85,1.12
478,puerto cabezas,40,NI,1586634051,79,87.8,14.04,-83.39,9.17
479,gouyave,20,GD,1586634051,62,86,12.16,-61.73,17.22
480,burnie,24,AU,1586634051,64,52,-41.07,145.92,11.01
481,novo aripuana,100,BR,1586634051,94,77.52,-5.12,-60.38,4.29
482,chicama,86,PE,1586634051,78,73.4,-7.84,-79.15,13.87
483,balaghat,0,IN,1586634052,17,80.37,21.8,80.18,1.28
484,zhaodong,28,CN,1586634052,64,33.8,46.08,125.98,4.47
485,khudumelapye,16,BW,1586634052,42,67.66,-23.88,24.75,4.63
486,labuhan,59,ID,1586634052,84,77.43,-6.88,112.21,2.95
487,dwarka,46,IN,1586634052,73,79.99,22.24,68.97,9.4
488,dali,27,CN,1586634052,28,47.32,25.7,100.18,2.21
489,caravelas,62,BR,1586633769,85,79.21,-17.71,-39.25,11.05
490,koungheul,0,SN,1586634053,18,91.71,13.98,-14.8,13.42
491,biskamzha,0,RU,1586634053,84,26.31,53.45,89.53,4.16
492,umm lajj,16,SA,1586634053,49,69.31,25.02,37.27,7.45
493,eydhafushi,45,MV,1586634053,69,84.45,5.1,73.07,5.01
494,montanha,73,BR,1586634053,87,74.64,-18.13,-40.36,8.01
495,aurillac,12,FR,1586634053,36,60.8,44.92,2.45,4.7
496,sibolga,94,ID,1586634054,76,78.39,1.74,98.78,2.37
497,los llanos de aridane,40,ES,1586634054,68,69.8,28.66,-17.92,11.41
498,melfi,5,IT,1586634054,67,60.8,41,15.65,1.12
499,honiara,75,SB,1586634054,100,75.2,-9.43,159.95,3.8
500,zadar,16,HR,1586634054,58,61,44.12,15.24,3.69
501,roebourne,0,AU,1586633807,44,81.48,-20.78,117.13,7.83
502,carutapera,87,BR,1586634054,85,81.16,-1.2,-46.02,9.78
503,rockingham,40,US,1586634055,28,53.01,42.97,-71.1,12.75
504,marsh harbour,10,BS,1586634055,76,74.23,26.54,-77.06,15.21
505,masyaf,10,SY,1586634055,81,49.84,35.07,36.34,4.74
506,lorengau,26,PG,1586633761,74,82.13,-2.02,147.27,0.87
507,barao de melgaco,21,BR,1586634055,43,91.4,-16.19,-55.97,8.05
508,san vicente,0,AR,1586634055,47,67.17,-26.62,-54.13,3.51
509,alfredo chaves,75,BR,1586634055,83,79,-20.64,-40.75,8.05
510,dublin,90,US,1586634042,76,66,37.7,-121.94,3.36
511,eagle pass,75,US,1586634056,62,84.2,28.71,-100.5,11.41
512,te anau,56,NZ,1586634056,67,55.45,-45.42,167.72,5.06
513,lompoc,1,US,1586634040,67,68,34.64,-120.46,13.87
514,lucapa,100,AO,1586633914,73,69.08,-8.42,20.74,2.57
515,general roca,69,AR,1586634056,25,73.4,-39.03,-67.58,3.36
516,half moon bay,90,US,1586633757,81,64,37.46,-122.43,4.7
517,merauke,73,ID,1586634057,89,77.41,-8.47,140.33,7.54
518,la palma,40,US,1586634057,59,69.01,33.85,-118.05,4.7
519,torbay,40,CA,1586634057,52,42.01,47.67,-52.73,25.28
520,butembo,97,CD,1586634057,66,59.52,0.15,29.28,1.97
521,harper,85,LR,1586633832,79,81.5,4.38,-7.72,4.07
522,tokur,0,RU,1586634058,87,25.11,53.13,132.9,1.77
523,tooele,90,US,1586634058,28,64.99,40.53,-112.3,6.93
524,luena,57,AO,1586634058,66,59.86,-11.78,19.92,3.02
525,norman wells,75,CA,1586634058,68,26.6,65.28,-126.83,13.87
526,bang saphan,5,TH,1586634058,86,77.49,11.21,99.51,2.62
527,balsas,81,BR,1586634059,77,79.63,-7.53,-46.04,0.45
528,pedra azul,97,BR,1586634059,77,70.45,-16.01,-41.3,3.94
529,pacific grove,90,US,1586634059,76,63,36.62,-121.92,4.7
530,moerai,29,PF,1586634059,78,81.79,-22.43,-151.33,2.91
531,batagay,99,RU,1586634059,94,27.18,67.63,134.63,6.78
532,alberton,22,CA,1586634059,42,42.01,46.82,-64.07,16.96
533,belaya gora,100,RU,1586633817,93,23.74,68.53,146.42,11.14
534,xining,0,CN,1586634060,25,34.38,36.62,101.77,1.68
535,santa rosa,75,PH,1586634060,78,82.4,14.31,121.11,2.24
536,ulladulla,0,AU,1586634060,57,52,-35.35,150.47,11.41
537,cockburn town,0,TC,1586634060,70,80.51,21.46,-71.14,10.47
538,pitimbu,20,BR,1586634060,66,87.8,-7.47,-34.81,11.41
539,sai buri,100,TH,1586634061,86,79.68,6.7,101.62,7.45
540,ust-kuyga,71,RU,1586634061,92,23.49,70.02,135.6,7.85
541,iisalmi,66,FI,1586634061,58,28.4,63.56,27.19,2.24
542,las lomas,40,PA,1586634061,66,89.6,8.43,-82.4,14.99
543,puerto carreno,40,CO,1586634003,41,95,6.19,-67.49,8.05
544,yenagoa,99,NG,1586634061,86,76.96,4.92,6.26,3.69
545,port blair,78,IN,1586634062,72,82.11,11.67,92.75,6.93
546,saurimo,78,AO,1586634062,71,65.75,-9.66,20.39,3.87
547,lasa,5,IT,1586634062,42,69.8,46.62,10.7,3.36
548,preobrazheniye,11,RU,1586634062,92,30.42,42.9,133.91,3.47
549,san andres,40,CO,1586634062,66,87.8,12.58,-81.7,13.87
550,lafia,100,NG,1586634062,53,81.81,8.48,8.52,4.9
551,batticaloa,4,LK,1586634062,79,80.24,7.71,81.69,2.68
552,luba,100,GQ,1586634063,73,80.15,3.46,8.55,10.69
553,alpena,90,US,1586634063,49,55.4,45.06,-83.43,14.99
554,nantucket,1,US,1586634063,63,53.6,41.28,-70.1,23.04
555,grand gaube,75,MU,1586634063,88,78.01,-20.01,57.66,18.34
556,eureka,90,US,1586634063,81,60.01,40.8,-124.16,6.93
557,machali,100,CL,1586634063,52,68,-34.18,-70.67,9.17
558,ambagarh chauki,0,IN,1586634063,15,81.05,20.78,80.72,2.1
559,palana,0,RU,1586634064,90,12.6,59.12,159.97,4.29
